[
  {
    "name": "Cedar's of Lebanon",
    "description": "Mediterranean eatery serving falafel and gyros in a cheery green space with colorful wall murals.",
    "fulladdress": "1319 NE 43rd St, Seattle, WA 98105",
    "phone": "(206) 632-7708",
    "reviewCount": 375,
    "averageRating": 4.6,
    "googleMapsURL": "https://www.google.com/maps?cid=10504378121437824757",
    "latitude": 47.6597151,
    "longitude":  -122.3135296,
    "website": "https://www.cedarsoflebanonuw.com",
    "has_patio": true,
    "cuisine": "Mediterranean",
    "openingHours": "Tuesday: [11 AM-8 PM], Wednesday: [11 AM-8 PM], Thursday: [11 AM-8 PM], Friday: [11 AM-8 PM], Saturday: [11 AM-8 PM], Sunday: [Closed], Monday: [11 AM-8 PM]"
  },
  {
    "name": "Thai Tom",
    "description": "Popular, cash-only Thai restaurant serving spicy wok creations in a no-frills dining room.",
    "fulladdress": "4543 University Wy NE, Seattle, WA 98105",
    "phone": "(206) 548-9548",
    "reviewCount": 1829,
    "averageRating": 4.3,
    "googleMapsURL": "https://www.google.com/maps?cid=4837175882708946003",
    "latitude": 47.6625436,
    "longitude": -122.3132366,
    "website": "https://thaitomseattle.com/",
    "has_patio": false,
    "cuisine": "Thai",
    "openingHours": "Sunday: [12-9 PM], Monday: [11:30 AM-9 PM], Tuesday: [11:30 AM-9 PM], Wednesday: [11:30 AM-9 PM], Thursday: [11:30 AM-9 PM], Friday: [11:30 AM-9 PM], Saturday: [11:30 AM-9 PM]"
  },
  {
    "name": "Thai 65",
    "description": "Restaurant with a mix of traditional Thai dishes, from noodles to curries plus vegetarian options.",
    "fulladdress": "4214 University Wy NE, Seattle, WA 98105",
    "phone": "(206) 632-6542",
    "reviewCount": 176,
    "averageRating": 3.4,
    "googleMapsURL": "https://www.google.com/maps?cid=13354047425207033561",
    "latitude": 47.6587544,
    "longitude": -122.3129889,
    "website": "https://www.facebook.com/Thai65Seattle/",
    "has_patio": false,
    "cuisine": "Thai",
    "openingHours": "Sunday: [11 AM-10 PM], Monday: [Closed], Tuesday: [11 AM-10 PM], Wednesday: [11 AM-10 PM], Thursday: [11 AM-10 PM], Friday: [11 AM-10 PM], Saturday: [11 AM-10 PM]"
  },
  {
    "name": "Sisi Kay Thai Eatery and Bar",
    "description": "Hip space specializing in classic & fusion Thai dishes plus cocktails in a roomy, two-story locale.",
    "fulladdress": "1612 N 45th St, Seattle, WA 98103",
    "phone": "(206) 659-4382",
    "reviewCount": 290,
    "averageRating": 4.4,
    "googleMapsURL": "https://www.google.com/maps?cid=1405724434958491323",
    "latitude": 47.6615615,
    "longitude": -122.3385771,
    "website": "http://sisikaythai.com/",
    "has_patio": true,
    "cuisine": "Thai",
    "openingHours": "Sunday: [12-9:30 PM], Monday: [11 AM-9:30 PM], Tuesday: [11 AM-9:30 PM], Wednesday: [11 AM-9:30 PM], Thursday: [11 AM-9:30 PM], Friday: [11 AM-10 PM], Saturday: [12-10 PM]"
  },
  {
    "name": "Marlai Thai Cuisine",
    "description": "Local mainstay for 20+ years serving Southeast Asian fare  with wine & beer in elegant surroundings.",
    "fulladdress": "3719 NE 45th St, Seattle, WA 98105",
    "phone": "(206) 523-3200",
    "reviewCount": 207,
    "averageRating": 4.1,
    "googleMapsURL": "https://www.google.com/maps?cid=11776413805138946775",
    "latitude": 47.6611221,
    "longitude": -122.2873985,
    "website": "http://www.marlaithai.com/",
    "has_patio": false,
    "cuisine": "Thai",
    "openingHours": "Sunday: [11 AM-9 PM], Monday: [11 AM-9 PM], Tuesday: [11 AM-9 PM], Wednesday: [11 AM-9 PM], Thursday: [11 AM-9 PM], Friday: [11 AM-9 PM], Saturday: [11 AM-9 PM]"
  },
  {
    "name": "Jai Thai Udub",
    "fulladdress": "4214 University Wy NE until A, Seattle, WA 98105",
    "phone": "(206) 547-9999",
    "reviewCount": 167,
    "averageRating": 3.9,
    "googleMapsURL": "https://www.google.com/maps?cid=8509578641599307587",
    "latitude": 47.658808099999995,
    "longitude": -122.31306289999999,
    "website": "https://jaithairestaurant.com",
    "has_patio": false,
    "cuisine": "Thai",
    "openingHours": "Sunday: [11 AM-9:30 PM], Monday: [11 AM-9:30 PM], Tuesday: [11 AM-9:30 PM], Wednesday: [11 AM-9:30 PM], Thursday: [11 AM-9:30 PM], Friday: [11 AM-9:30 PM], Saturday: [11 AM-9:30 PM]"
  },
  {
    "name": "45th Vegetarian Thai",
    "fulladdress": "1718 N 45th St, Seattle, WA 98103",
    "phone": "(206) 258-4923",
    "reviewCount": 108,
    "averageRating": 4.9,
    "googleMapsURL": "https://www.google.com/maps?cid=4904342632025783141",
    "latitude": 47.661576499999995,
    "longitude": -122.33690379999999,
    "website": "http://www.45thvegetarianthai.com/",
    "has_patio": false,
    "cuisine": "Thai",
    "openingHours": "Sunday: [11 AM-9 PM], Monday: [11 AM-9 PM], Tuesday: [11 AM-9 PM], Wednesday: [11 AM-9 PM], Thursday: [11 AM-9 PM], Friday: [11 AM-9 PM], Saturday: [11 AM-9 PM]"
  },
  {
    "name": "KRUA THAI EATERY",
    "description": "Small & cheery Thai go-to serving a variety of Thai dishes, including house specials, plus takeout.",
    "fulladdress": "2515 NE 55th St, Seattle, WA 98105",
    "phone": "(206) 985-4398",
    "reviewCount": 220,
    "averageRating": 4.3,
    "googleMapsURL": "https://www.google.com/maps?cid=7208453935821419710",
    "latitude": 47.668375499999996,
    "longitude": -122.29977939999999,
    "website": "http://www.kruaseattle.com/",
    "has_patio": false,
    "cuisine": "Thai",
    "openingHours": "Sunday: [12-8:30 PM], Monday: [Closed], Tuesday: [11:30 AM-8:30 PM], Wednesday: [11:30 AM-8:30 PM], Thursday: [11:30 AM-8:30 PM], Friday: [11:30 AM-9 PM], Saturday: [12-9 PM]"
  },
  {
    "name": "Silver Tray Thai",
    "description": "Intimate eatery offering unexpected twists on traditional Thai cuisine, including spicy dishes.",
    "fulladdress": "2101 N 45th St, Seattle, WA 98103",
    "phone": "(206) 632-2300",
    "reviewCount": 276,
    "averageRating": 4.7,
    "googleMapsURL": "https://www.google.com/maps?cid=1290274991365389576",
    "latitude": 47.661249999999995,
    "longitude": -122.33362779999999,
    "website": "http://www.silvertraythai.com/",
    "has_patio": true,
    "cuisine": "Thai",
    "openingHours": "Sunday: [12-9 PM], Monday: [11 AM-9 PM], Tuesday: [Closed], Wednesday: [11 AM-9 PM], Thursday: [11 AM-9 PM], Friday: [11 AM-9 PM], Saturday: [12-9 PM]"
  },
  {
    "name": "Thaiger Room",
    "description": "Thai cafe offering curries, noodles & other traditional dishes in a small brick-walled space.",
    "fulladdress": "1312 NE 43rd St, Seattle, WA 98105",
    "phone": "(206) 632-9299",
    "reviewCount": 355,
    "averageRating": 3.7,
    "googleMapsURL": "https://www.google.com/maps?cid=7877150895151548913",
    "latitude": 47.659959799999996,
    "longitude": -122.31360679999999,
    "has_patio": false,
    "cuisine": "Thai",
    "openingHours": "Sunday: [12-10 PM], Monday: [11 AM-10 PM], Tuesday: [11 AM-10 PM], Wednesday: [11 AM-1 AM], Thursday: [11 AM-1 AM], Friday: [11 AM-1 AM], Saturday: [12 PM-1 AM]"
  },
  {
    "name": "Djan's Dining Thai Restaurant",
    "description": "Bright, contemporary establishment serving classic dishes from Thailand in a vintage house.",
    "fulladdress": "264 NE 45th St, Seattle, WA 98105",
    "phone": "(206) 633-3526",
    "reviewCount": 414,
    "averageRating": 4.3,
    "googleMapsURL": "https://www.google.com/maps?cid=5688789741251792836",
    "latitude": 47.6615104,
    "longitude": -122.3254317,
    "website": "http://www.djans.com/",
    "has_patio": true,
    "cuisine": "Thai",
    "openingHours": "Sunday: [12-10 PM], Monday: [11 AM-3 PM, 4-10 PM], Tuesday: [11 AM-3 PM, 4-10 PM], Wednesday: [11 AM-3 PM, 4-10 PM], Thursday: [11 AM-10 PM], Friday: [11 AM-10 PM], Saturday: [12-10 PM]"
  },
  {
    "name": "Rom Mai Thai Restaurant",
    "description": "Familiar Thai fare, from spring rolls to curries, in a bright spot with carved-wood furniture.",
    "fulladdress": "613 Broadway E, Seattle, WA 98102",
    "phone": "(206) 726-9058",
    "reviewCount": 492,
    "averageRating": 4.4,
    "googleMapsURL": "https://www.google.com/maps?cid=2310710453872588532",
    "latitude": 47.624743599999995,
    "longitude": -122.32115189999999,
    "website": "http://www.rommaithai.com/",
    "has_patio": false,
    "cuisine": "Thai",
    "openingHours": "Sunday: [12-9:30 PM], Monday: [11 AM-2:30 PM, 4-9:30 PM], Tuesday: [11 AM-2:30 PM, 4-9:30 PM], Wednesday: [11 AM-2:30 PM, 4-9:30 PM], Thursday: [11 AM-2:30 PM, 4-9:30 PM], Friday: [11 AM-2:30 PM, 4-9:30 PM], Saturday: [11 AM-9:30 PM]"
  },
  {
    "name": "Thai Thani Kitchen",
    "fulladdress": "201 Boren Ave N, Seattle, WA 98109",
    "phone": "(206) 624-1485",
    "reviewCount": 644,
    "averageRating": 3.9,
    "googleMapsURL": "https://www.google.com/maps?cid=13715102485521331340",
    "latitude": 47.6199449,
    "longitude": -122.33605879999999,
    "website": "http://www.thaithanikitchen.com/SouthLakeUnion.html",
    "has_patio": false,
    "cuisine": "Thai",
    "openingHours": "Sunday: [12-8:30 PM], Monday: [11 AM-8:30 PM], Tuesday: [11 AM-8:30 PM], Wednesday: [11 AM-8:30 PM], Thursday: [11 AM-8:30 PM], Friday: [11 AM-9 PM], Saturday: [12-9 PM]"
  },
  {
    "name": "Pinto Thai Bistro Seattle",
    "description": "Small eatery offering a combination of Thai dishes & sushi in a room with wood walls & neon lights.",
    "fulladdress": "408 Broadway E, Seattle, WA 98102",
    "phone": "(206) 724-0559",
    "reviewCount": 266,
    "averageRating": 4.3,
    "googleMapsURL": "https://www.google.com/maps?cid=7072931781894411858",
    "latitude": 47.6223312,
    "longitude": -122.32075549999999,
    "website": "http://www.pintobistro.com/",
    "has_patio": false,
    "cuisine": "Thai",
    "openingHours": "Sunday: [11:45 AM-9 PM], Monday: [10:45 AM-9 PM], Tuesday: [10:45 AM-9 PM], Wednesday: [10:45 AM-9 PM], Thursday: [10:45 AM-9 PM], Friday: [10:45 AM-9 PM], Saturday: [11:45 AM-9 PM]"
  },
  {
    "name": "Kati Vegan Thai",
    "description": "Vegan Thai cuisine & original cocktail in an airy, modern space with pendant lights & blonde wood.",
    "fulladdress": "1190 Thomas St, Seattle, WA 98109",
    "phone": "(323) 989-1968",
    "reviewCount": 1158,
    "averageRating": 4.4,
    "googleMapsURL": "https://www.google.com/maps?cid=12701574576511241751",
    "latitude": 47.6209821,
    "longitude": -122.33344269999999,
    "website": "https://kativeganthai.com/",
    "has_patio": false,
    "cuisine": "Thai",
    "openingHours": "Sunday: [11:30 AM-3 PM, 4:30-9 PM], Monday: [11:30 AM-3 PM, 4:30-9 PM], Tuesday: [11:30 AM-3 PM, 4:30-9 PM], Wednesday: [11:30 AM-3 PM, 4:30-9 PM], Thursday: [11:30 AM-3 PM, 4:30-9 PM], Friday: [11:30 AM-3 PM, 4:30-9:30 PM], Saturday: [11:30 AM-3 PM, 4:30-9:30 PM]"
  },
  {
    "name": "Jamjuree Thai Cuisine",
    "description": "Thai noodles, curries & satays, including some twists on classic dishes, in an upbeat diner setting.",
    "fulladdress": "509 15th Ave E, Seattle, WA 98112",
    "phone": "(206) 323-4255",
    "reviewCount": 458,
    "averageRating": 4.3,
    "googleMapsURL": "https://www.google.com/maps?cid=6777982058771670933",
    "latitude": 47.6234648,
    "longitude": -122.31289,
    "website": "https://www.jamjuree.com/",
    "has_patio": true,
    "cuisine": "Thai",
    "openingHours": "Sunday: [11:30 AM-9 PM], Monday: [11:30 AM-9 PM], Tuesday: [11:30 AM-9 PM], Wednesday: [11:30 AM-9 PM], Thursday: [11:30 AM-9 PM], Friday: [11:30 AM-9 PM], Saturday: [11:30 AM-9 PM]"
  },
  {
    "name": "Bahn Thai Restaurant",
    "description": "Long-running Thai restaurant serving classic dishes inside a converted house or for delivery.",
    "fulladdress": "409 Roy St, Seattle, WA 98109",
    "phone": "(206) 283-0444",
    "reviewCount": 908,
    "averageRating": 4.4,
    "googleMapsURL": "https://www.google.com/maps?cid=7980243809025871535",
    "latitude": 47.6252236,
    "longitude": -122.34837719999999,
    "website": "http://www.bahnthaimenu.com/",
    "has_patio": false,
    "cuisine": "Thai",
    "openingHours": "Sunday: [12-9:30 PM], Monday: [11:30 AM-3 PM, 4:30-9:30 PM], Tuesday: [11:30 AM-3 PM, 4:30-9:30 PM], Wednesday: [11:30 AM-3 PM, 4:30-9:30 PM], Thursday: [11:30 AM-3 PM, 4:30-9:30 PM], Friday: [11:30 AM-3 PM, 4:30-10 PM], Saturday: [12-10 PM]"
  },
  {
    "name": "Manao Thai Street Eats",
    "description": "Cozy Thai eatery specializing in street food, such as spring rolls & noodles, with counter-service.",
    "fulladdress": "1222 E Pine St, Seattle, WA 98122",
    "phone": "(206) 556-2964",
    "reviewCount": 880,
    "averageRating": 4.4,
    "googleMapsURL": "https://www.google.com/maps?cid=572601931424251488",
    "latitude": 47.615539,
    "longitude": -122.3157919,
    "website": "https://linktr.ee/manaoseattle",
    "has_patio": false,
    "cuisine": "Thai",
    "openingHours": "Sunday: [12-9 PM], Monday: [11 AM-10 PM], Tuesday: [11 AM-10 PM], Wednesday: [11 AM-10 PM], Thursday: [11 AM-10 PM], Friday: [11 AM-10 PM], Saturday: [12-10 PM]"
  },
  {
    "name": "The Patio Fine Thai Cuisine",
    "description": "Stylish Thai mainstay features a variety of classic dishes in a modern interior, with patio seating.",
    "fulladdress": "524 15th Ave E, Seattle, WA 98112",
    "phone": "(206) 328-2406",
    "reviewCount": 235,
    "averageRating": 4.1,
    "googleMapsURL": "https://www.google.com/maps?cid=7111088416991663614",
    "latitude": 47.624033999999995,
    "longitude": -122.312266,
    "has_patio": true,
    "cuisine": "Thai",
    "openingHours": "Sunday: [11 AM-10 PM], Monday: [11 AM-10 PM], Tuesday: [11 AM-10 PM], Wednesday: [11 AM-10 PM], Thursday: [11 AM-10 PM], Friday: [11 AM-10 PM], Saturday: [11 AM-10 PM]"
  },
  {
    "name": "Noi Thai Cuisine - Downtown Seattle",
    "description": "Elegant place offering elaborate presentations of traditional Thai dishes, plus drinks.",
    "fulladdress": "1303 1st Ave, Seattle, WA 98101",
    "phone": "(206) 787-8444",
    "reviewCount": 2127,
    "averageRating": 4.4,
    "googleMapsURL": "https://www.google.com/maps?cid=560617719359971970",
    "latitude": 47.6068919,
    "longitude": -122.3387501,
    "website": "http://www.seattle.noithaicuisine.com/",
    "has_patio": false,
    "cuisine": "Thai",
    "openingHours": "Sunday: [12-9:30 PM], Monday: [12-9:30 PM], Tuesday: [12-9:30 PM], Wednesday: [12-9:30 PM], Thursday: [12-2 PM, 4-7:30 PM], Friday: [12-10:30 PM], Saturday: [12-10:30 PM]"
  },
  {
    "name": "Thai On 1 - Belltown",
    "description": "Traditional Thai cooking is presented with beer & cocktails in a decorated space with happy hour.",
    "fulladdress": "2904 1st Ave, Seattle, WA 98121",
    "phone": "(206) 441-4348",
    "reviewCount": 421,
    "averageRating": 4.4,
    "googleMapsURL": "https://www.google.com/maps?cid=16907998444490566520",
    "latitude": 47.6172173,
    "longitude": -122.3526325,
    "website": "http://www.thaion1.com/",
    "has_patio": false,
    "cuisine": "Thai",
    "openingHours": "Sunday: [12-9 PM], Monday: [11 AM-9 PM], Tuesday: [11 AM-9 PM], Wednesday: [11 AM-9 PM], Thursday: [11 AM-9 PM], Friday: [11 AM-9 PM], Saturday: [12-9 PM]"
  },
  {
    "name": "Mirch Masala Indian Food Restaurant",
    "description": "Small, family-owned Northern Indian restaurant with a lunch buffet in a casual, smart setting.",
    "fulladdress": "213 Broadway E, Seattle, WA 98102",
    "phone": "(206) 709-0111",
    "reviewCount": 618,
    "averageRating": 3.9,
    "googleMapsURL": "https://www.google.com/maps?cid=867823158473647272",
    "latitude": 47.620305599999995,
    "longitude": -122.32125479999999,
    "website": "https://mirchmasalaseattle.com/",
    "has_patio": false,
    "cuisine": "Indian",
    "openingHours": "Sunday: [11 AM-9:30 PM], Monday: [11 AM-9:30 PM], Tuesday: [11 AM-9:30 PM], Wednesday: [11 AM-9:30 PM], Thursday: [11 AM-9:30 PM], Friday: [11 AM-9:30 PM], Saturday: [11 AM-9:30 PM]"
  },
  {
    "name": "Food Junction",
    "fulladdress": "1165 Harrison St Unit A, Seattle, WA 98109",
    "phone": "(206) 413-5165",
    "reviewCount": 99,
    "averageRating": 4.1,
    "googleMapsURL": "https://www.google.com/maps?cid=13409033472380567319",
    "latitude": 47.621816599999995,
    "longitude": -122.33350659999999,
    "website": "http://foodjunctionseattle.com/",
    "has_patio": false,
    "cuisine": "Indian",
    "openingHours": "Sunday: [10:30 AM-2:30 PM, 3:30-9 PM], Monday: [10:30 AM-2:30 PM, 3:30-9 PM], Tuesday: [Closed], Wednesday: [10:30 AM-2:30 PM, 3:30-9 PM], Thursday: [10:30 AM-2:30 PM, 3:30-9 PM], Friday: [10:30 AM-2:30 PM, 3:30-9 PM], Saturday: [10:30 AM-2:30 PM, 3:30-9 PM]"
  },
  {
    "name": "Ammi's Pakwan Indian Food Restaurant",
    "description": "Booths, low ceilings & tapestries create the backdrop for Indian curry & tandoori entrees.",
    "fulladdress": "213 Broadway E, Seattle, WA 98102",
    "phone": "(206) 709-0111",
    "reviewCount": 401,
    "averageRating": 3.6,
    "googleMapsURL": "https://www.google.com/maps?cid=17162957121442235095",
    "latitude": 47.6203126,
    "longitude": -122.3212573,
    "website": "https://www.ammispakwanseattle.com/",
    "has_patio": false,
    "cuisine": "Indian",
    "openingHours": "Sunday: [11 AM-9:45 PM], Monday: [11 AM-9:45 PM], Tuesday: [11 AM-9:45 PM], Wednesday: [11 AM-9:45 PM], Thursday: [11 AM-9:45 PM], Friday: [11 AM-9:45 PM], Saturday: [11 AM-9:45 PM]"
  },
  {
    "name": "Moti Mahal Indian Cuisine",
    "description": "Northern Indian spot offering classic cuisine, with delivery & takeaway options.",
    "fulladdress": "1520 Broadway, Seattle, WA 98122",
    "phone": "(206) 258-4135",
    "reviewCount": 201,
    "averageRating": 3.5,
    "googleMapsURL": "https://www.google.com/maps?cid=2507745197971396155",
    "latitude": 47.6146842,
    "longitude": -122.32055989999999,
    "website": "https://www.motimahalindiancuisine.com/",
    "has_patio": false,
    "cuisine": "Indian",
    "openingHours": "Sunday: [11 AM-3 AM], Monday: [11 AM-3 AM], Tuesday: [11 AM-3 AM], Wednesday: [11 AM-3 AM], Thursday: [11 AM-3 AM], Friday: [11 AM-3 AM], Saturday: [11 AM-3 AM]"
  },
  {
    "name": "Roti Cuisine of India",
    "description": "Fresh-baked breads plus curries & tandoori-oven items served amid traditional statues of Hindu gods.",
    "fulladdress": "530 Queen Anne Ave N #4520, Seattle, WA 98109",
    "phone": "(206) 216-7684",
    "reviewCount": 899,
    "averageRating": 4,
    "googleMapsURL": "https://www.google.com/maps?cid=9214763152900642268",
    "latitude": 47.6242993,
    "longitude": -122.3565301,
    "website": "http://www.rotirestaurantseattle.com/",
    "has_patio": false,
    "cuisine": "Indian",
    "openingHours": "Sunday: [11 AM-2:30 PM, 4-9:30 PM], Monday: [11 AM-2:30 PM, 4-9:30 PM], Tuesday: [11 AM-2:30 PM, 4-9:30 PM], Wednesday: [11 AM-2:30 PM, 4-9:30 PM], Thursday: [11 AM-2:30 PM, 4-9:30 PM], Friday: [11 AM-2:30 PM, 4-9:30 PM], Saturday: [11 AM-2:30 PM, 4-9:30 PM]"
  },
  {
    "name": "Tandoori Flame & Indian Grill",
    "fulladdress": "345 15th Ave E Suite 201, Seattle, WA 98112",
    "phone": "(206) 567-3399",
    "reviewCount": 120,
    "averageRating": 4.5,
    "googleMapsURL": "https://www.google.com/maps?cid=9973729606725770097",
    "latitude": 47.6217659,
    "longitude": -122.31297529999999,
    "website": "http://www.tandooriflameindiangrill.com/",
    "has_patio": false,
    "cuisine": "Indian",
    "openingHours": "Sunday: [11:30 AM-9 PM], Monday: [11 AM-10 PM], Tuesday: [11 AM-10 PM], Wednesday: [11 AM-10 PM], Thursday: [11 AM-10 PM], Friday: [11 AM-10 PM], Saturday: [11 AM-10 PM]"
  },
  {
    "name": "Kanak Indian cuisine",
    "description": "Simple setting for traditional Indian cuisine, including a wide variety of vegan dishes.",
    "fulladdress": "2211 4th Ave, Seattle, WA 98121",
    "phone": "(206) 906-9968",
    "reviewCount": 798,
    "averageRating": 4.2,
    "googleMapsURL": "https://www.google.com/maps?cid=9001042271995630900",
    "latitude": 47.6147911,
    "longitude": -122.34328479999999,
    "website": "http://www.kanakindianseattle.com/",
    "has_patio": false,
    "cuisine": "Indian",
    "openingHours": "Sunday: [11:30 AM-10 PM], Monday: [11 AM-10 PM], Tuesday: [11 AM-10 PM], Wednesday: [11 AM-10 PM], Thursday: [11 AM-10 PM], Friday: [11 AM-10 PM], Saturday: [11 AM-10 PM]"
  },
  {
    "name": "Daawat Indian Grill & Bar",
    "description": "Expansive, white-tablecloth restaurant serving a range of traditional dishes from across India.",
    "fulladdress": "820 Pike St, Seattle, WA 98101",
    "phone": "(206) 467-7272",
    "reviewCount": 2432,
    "averageRating": 4,
    "googleMapsURL": "https://www.google.com/maps?cid=15489151550298348397",
    "latitude": 47.612600699999994,
    "longitude": -122.3314142,
    "website": "http://www.daawatgrillbar.com/?utm_source=gmb&utm_medium=website",
    "has_patio": false,
    "cuisine": "Indian",
    "openingHours": "Sunday: [12-9:30 PM], Monday: [11 AM-9:30 PM], Tuesday: [11 AM-9:30 PM], Wednesday: [11 AM-9:30 PM], Thursday: [11 AM-9:30 PM], Friday: [11 AM-9:30 PM], Saturday: [11 AM-9:30 PM]"
  },
  {
    "name": "The Guilt Trip Express",
    "description": "Bright, hip eatery offering modern Indian fare with a twist, plus a chutney bar & covered patio.",
    "fulladdress": "The Guilt Trip Express, 1525 13th Ave, Seattle, WA 98122",
    "phone": "(425) 608-8788",
    "reviewCount": 1748,
    "averageRating": 4,
    "googleMapsURL": "https://www.google.com/maps?cid=11701319018193556064",
    "latitude": 47.6149171,
    "longitude": -122.3158802,
    "website": "http://www.theguilttriprestaurant.com/",
    "has_patio": true,
    "cuisine": "Indian",
    "openingHours": "Sunday: [11 AM-11 PM], Monday: [Closed], Tuesday: [11 AM-11 PM], Wednesday: [11 AM-11 PM], Thursday: [11 AM-2 AM], Friday: [11 AM-2 AM], Saturday: [11 AM-2 AM]"
  },
  {
    "name": "Spice Bliss",
    "description": "Straightforward take-out offering typical Indian curries, samosas, tandoori dishes & more.",
    "fulladdress": "1520 Broadway, Seattle, WA 98122",
    "phone": "(206) 258-4135",
    "reviewCount": 272,
    "averageRating": 4.1,
    "googleMapsURL": "https://www.google.com/maps?cid=10606370898114350882",
    "latitude": 47.6146745,
    "longitude": -122.3205576,
    "website": "http://www.spiceboxseattlewa.com/?utm_source=gmb&utm_medium=website",
    "has_patio": false,
    "cuisine": "Indian",
    "openingHours": "Sunday: [11 AM-3 AM], Monday: [11 AM-3 AM], Tuesday: [11 AM-3 AM], Wednesday: [11 AM-3 AM], Thursday: [11 AM-3 AM], Friday: [11 AM-3 AM], Saturday: [11 AM-3 AM]"
  },
  {
    "name": "Rondo Japanese Kitchen",
    "description": "Casual-chic stop for ramen, donburi bowls, and izakaya-style snacks, plus Japanese cocktails.",
    "fulladdress": "224 Broadway E, Seattle, WA 98102",
    "phone": "(206) 588-2051",
    "reviewCount": 618,
    "averageRating": 4.5,
    "googleMapsURL": "https://www.google.com/maps?cid=868696926472711147",
    "latitude": 47.6207211,
    "longitude": -122.32051469999999,
    "website": "https://www.rondojapanesekitchen.com/",
    "has_patio": true,
    "cuisine": "Japanese",
    "openingHours": "Sunday: [11:30 AM-9:30 PM], Monday: [11:30 AM-9:30 PM], Tuesday: [Closed], Wednesday: [11:30 AM-9:30 PM], Thursday: [11:30 AM-9:30 PM], Friday: [11:30 AM-9:30 PM], Saturday: [11:30 AM-9:30 PM]"
  },
  {
    "name": "Sumo Express",
    "description": "Easygoing restaurant offering Japanese-inspired eats such as yakisoba, sushi & poke bowls.",
    "fulladdress": "219 Broadway E #18, Seattle, WA 98102",
    "phone": "(206) 402-3255",
    "reviewCount": 209,
    "averageRating": 4.2,
    "googleMapsURL": "https://www.google.com/maps?cid=8976710472693595417",
    "latitude": 47.6206302,
    "longitude": -122.3210823,
    "website": "http://www.sumoexpress.com/",
    "has_patio": false,
    "cuisine": "Japanese",
    "openingHours": "Sunday: [11 AM-1:30 AM], Monday: [11 AM-1:30 AM], Tuesday: [11 AM-1:30 AM], Wednesday: [11 AM-1:30 AM], Thursday: [11 AM-1:30 AM], Friday: [11 AM-1:30 AM], Saturday: [11 AM-1:30 AM]"
  },
  {
    "name": "Hurry Curry of Tokyo - South Lake Union",
    "description": "Cheery cafe showcasing Japanese curry, pasta & comfort food in a contemporary space.",
    "fulladdress": "825 Harrison St, Seattle, WA 98109",
    "phone": "(206) 681-9443",
    "reviewCount": 1123,
    "averageRating": 4.1,
    "googleMapsURL": "https://www.google.com/maps?cid=17831104221983641091",
    "latitude": 47.6219142,
    "longitude": -122.3400841,
    "website": "http://www.hurrycurryoftokyo-seattle.com/",
    "has_patio": true,
    "cuisine": "Japanese",
    "openingHours": "Sunday: [10 AM-9:30 PM], Monday: [10 AM-10 PM], Tuesday: [10 AM-10 PM], Wednesday: [10 AM-10 PM], Thursday: [10 AM-10 PM], Friday: [10 AM-10 PM], Saturday: [10 AM-10 PM]"
  },
  {
    "name": "U:Don Fresh Japanese Noodle Station – Capitol Hill",
    "description": "Counter-serve destination offering traditional Japanese noodle dishes in an informal environment.",
    "fulladdress": "1640 12th Ave, Seattle, WA 98122",
    "phone": "(206) 466-1471",
    "reviewCount": 710,
    "averageRating": 4.4,
    "googleMapsURL": "https://www.google.com/maps?cid=7198380116348165899",
    "latitude": 47.6158266,
    "longitude": -122.3164182,
    "website": "https://freshudon.com/udon-capitolhill",
    "has_patio": false,
    "cuisine": "Japanese",
    "openingHours": "Sunday: [11 AM-8:30 PM], Monday: [11 AM-8:30 PM], Tuesday: [11 AM-8:30 PM], Wednesday: [11 AM-8:30 PM], Thursday: [11 AM-8:30 PM], Friday: [11 AM-9 PM], Saturday: [11 AM-9 PM]"
  },
  {
    "name": "sankaku onigiri cafe & bar",
    "fulladdress": "1531 Melrose Ave, Seattle, WA 98122",
    "reviewCount": 69,
    "averageRating": 4.7,
    "googleMapsURL": "https://www.google.com/maps?cid=8616500747833272929",
    "latitude": 47.6147749,
    "longitude": -122.3281061,
    "has_patio": false,
    "cuisine": "Japanese",
    "openingHours": "Sunday: [1-6 PM], Monday: [1-6 PM], Tuesday: [1-4 PM], Wednesday: [Closed], Thursday: [1-7 PM], Friday: [1-7 PM], Saturday: [1-7 PM]"
  },
  {
    "name": "Urara Japanese Cuisine",
    "description": "Unassuming restaurant offering sushi bowls & other classic Japanese bites in a relaxed atmosphere.",
    "fulladdress": "82 Stewart St, Seattle, WA 98101",
    "phone": "(206) 451-5914",
    "reviewCount": 291,
    "averageRating": 4.3,
    "googleMapsURL": "https://www.google.com/maps?cid=3566638643277072345",
    "latitude": 47.609941199999994,
    "longitude": -122.3420987,
    "has_patio": false,
    "cuisine": "Japanese",
    "openingHours": "Sunday: [11 AM-9 PM], Monday: [11 AM-9 PM], Tuesday: [Closed], Wednesday: [11 AM-9 PM], Thursday: [11 AM-9 PM], Friday: [11 AM-9 PM], Saturday: [11 AM-9 PM]"
  },
  {
    "name": "Teriyaki & Wok",
    "description": "Casual restaurant with a simple interior serving sushi & Japanese entrees plus bento boxes & soups.",
    "fulladdress": "324 Broadway E, Seattle, WA 98102",
    "phone": "(206) 709-9888",
    "reviewCount": 404,
    "averageRating": 4.1,
    "googleMapsURL": "https://www.google.com/maps?cid=13431941074408173868",
    "latitude": 47.621822599999994,
    "longitude": -122.32051089999999,
    "website": "https://teriyakiandwok.com/",
    "has_patio": true,
    "cuisine": "Japanese",
    "openingHours": "Sunday: [10 AM-10 PM], Monday: [10 AM-10 PM], Tuesday: [10 AM-10 PM], Wednesday: [10 AM-10 PM], Thursday: [10 AM-10 PM], Friday: [10 AM-10 PM], Saturday: [10 AM-10 PM]"
  },
  {
    "name": "Karaage Setsuna",
    "description": "Unassuming option for Japanese/Hawaiian fusion dishes, with signature Japanese-style fried chicken.",
    "fulladdress": "2429 2nd Ave, Seattle, WA 98121",
    "phone": "(206) 448-3595",
    "reviewCount": 781,
    "averageRating": 4.6,
    "googleMapsURL": "https://www.google.com/maps?cid=5242791768245341715",
    "latitude": 47.615091299999996,
    "longitude": -122.3477633,
    "website": "http://karaagesetsuna.com/",
    "has_patio": false,
    "cuisine": "Japanese",
    "openingHours": "Sunday: [11:30 AM-2 PM, 5-9 PM], Monday: [11:30 AM-2:30 PM, 5-9 PM], Tuesday: [11:30 AM-2 PM, 5-9 PM], Wednesday: [11:30 AM-2 PM, 5-9 PM], Thursday: [11:30 AM-2 PM, 5-9 PM], Friday: [11:30 AM-2 PM, 5-9 PM], Saturday: [11:30 AM-2 PM, 5-9 PM]"
  },
  {
    "name": "Onibaba by Tsukushinbo",
    "description": "Unfussy mainstay offering familiar sushi rolls plus hot Japanese items like shoyu ramen & gyoza.",
    "fulladdress": "515 South Main St, Seattle, WA 98104",
    "phone": "(206) 467-4004",
    "reviewCount": 1071,
    "averageRating": 4.6,
    "googleMapsURL": "https://www.google.com/maps?cid=4420519686607747275",
    "latitude": 47.599855899999994,
    "longitude": -122.32678469999999,
    "website": "https://www.onibabaseattle.com/",
    "has_patio": false,
    "cuisine": "Japanese",
    "openingHours": "Sunday: [12-9 PM], Monday: [12-2 PM, 5-9 PM], Tuesday: [Closed], Wednesday: [Closed], Thursday: [12-2 PM, 5-9 PM], Friday: [12-2 PM, 5-9 PM], Saturday: [12-2 PM, 5-9 PM]"
  },
  {
    "name": "Migoto",
    "description": "Sushi rolls, classic Japanese entrees, sake & cocktails served up in a casual, modern dining room.",
    "fulladdress": "514 12th Ave, Seattle, WA 98122",
    "phone": "(206) 329-1112",
    "reviewCount": 293,
    "averageRating": 4.6,
    "googleMapsURL": "https://www.google.com/maps?cid=15192870602524968332",
    "latitude": 47.6067391,
    "longitude": -122.31649829999999,
    "website": "https://www.gomigoto.com/",
    "has_patio": false,
    "cuisine": "Japanese",
    "openingHours": "Sunday: [12-9 PM], Monday: [12-9 PM], Tuesday: [12-9 PM], Wednesday: [12-9 PM], Thursday: [12-9 PM], Friday: [12-9:30 PM], Saturday: [12-9:30 PM]"
  },
  {
    "name": "Musashi's",
    "description": "Cozy, cash-only joint serving a limited menu including sushi, teriyaki & chirashi bowls.",
    "fulladdress": "1400 N 45th St, Seattle, WA 98103",
    "phone": "(206) 633-0212",
    "reviewCount": 1077,
    "averageRating": 4.5,
    "googleMapsURL": "https://www.google.com/maps?cid=4028108160313188631",
    "latitude": 47.6615602,
    "longitude": -122.34049019999999,
    "website": "https://musashiswa.wixsite.com/musashis",
    "has_patio": false,
    "cuisine": "Japanese",
    "openingHours": "Sunday: [11:30 AM-2:30 PM, 4:45-8:45 PM], Monday: [11:30 AM-2:30 PM, 4:45-8:45 PM], Tuesday: [11:30 AM-2:30 PM, 4:45-8:45 PM], Wednesday: [11:30 AM-2:30 PM, 4:45-8:45 PM], Thursday: [11:30 AM-2:30 PM, 4:45-8:45 PM], Friday: [11:30 AM-2:30 PM, 4:45-8:45 PM], Saturday: [11:30 AM-2:30 PM, 4:45-8:45 PM]"
  },
  {
    "name": "U:Don Fresh Japanese Noodle Station – University District",
    "description": "Counter-serve destination offering traditional Japanese noodle dishes in an informal environment.",
    "fulladdress": "4515 University Wy NE, Seattle, WA 98105",
    "phone": "(206) 453-3788",
    "reviewCount": 952,
    "averageRating": 4.4,
    "googleMapsURL": "https://www.google.com/maps?cid=11729193079486711628",
    "latitude": 47.6617673,
    "longitude": -122.31340349999999,
    "website": "https://freshudon.com/udon-university",
    "has_patio": false,
    "cuisine": "Japanese",
    "openingHours": "Sunday: [11 AM-8:30 PM], Monday: [11 AM-8:30 PM], Tuesday: [11 AM-8:30 PM], Wednesday: [11 AM-8:30 PM], Thursday: [11 AM-8:30 PM], Friday: [11 AM-9 PM], Saturday: [11 AM-9 PM]"
  },
  {
    "name": "IJ Sushi Burrito - UW",
    "fulladdress": "4141 University Wy NE, Seattle, WA 98105",
    "phone": "(206) 547-2168",
    "reviewCount": 106,
    "averageRating": 4.2,
    "googleMapsURL": "https://www.google.com/maps?cid=11074357231210745560",
    "latitude": 47.658107699999995,
    "longitude": -122.31342599999999,
    "website": "https://www.ijsushiburrito.com/",
    "has_patio": false,
    "cuisine": "Japanese",
    "openingHours": "Sunday: [11 AM-9 PM], Monday: [11 AM-9 PM], Tuesday: [11 AM-9 PM], Wednesday: [11 AM-9 PM], Thursday: [11 AM-9 PM], Friday: [11 AM-9 PM], Saturday: [11 AM-9 PM]"
  },
  {
    "name": "Samurai Noodle",
    "description": "Part of local ramen chain with many options & noodles made in-house, served in a no-frills setting.",
    "fulladdress": "4138 University Wy NE, Seattle, WA 98105",
    "phone": "(206) 547-1774",
    "reviewCount": 694,
    "averageRating": 4.1,
    "googleMapsURL": "https://www.google.com/maps?cid=9095069385356162624",
    "latitude": 47.657989,
    "longitude": -122.31307779999999,
    "website": "http://www.samurainoodle.com/",
    "has_patio": false,
    "cuisine": "Japanese",
    "openingHours": "Sunday: [11:30 AM-4 PM, 5-8 PM], Monday: [11:30 AM-4 PM, 5-8 PM], Tuesday: [11:30 AM-4 PM, 5-8 PM], Wednesday: [11:30 AM-4 PM, 5-8 PM], Thursday: [11:30 AM-4 PM, 5-8 PM], Friday: [11:30 AM-4 PM, 5-8 PM], Saturday: [11:30 AM-4 PM, 5-8 PM]"
  },
  {
    "name": "Bamboo Sushi",
    "description": "Certified sustainably sourced seafood and sushi, plus Japanese dishes in an airy, modern setting.",
    "fulladdress": "2675 NE University Village St, Seattle, WA 98105",
    "phone": "(206) 556-3449",
    "reviewCount": 590,
    "averageRating": 4.3,
    "googleMapsURL": "https://www.google.com/maps?cid=9177923322461459749",
    "latitude": 47.662074,
    "longitude": -122.2983848,
    "website": "https://bamboosushi.com/location/university-village/details",
    "has_patio": true,
    "cuisine": "Japanese",
    "openingHours": "Sunday: [11 AM-9 PM], Monday: [11 AM-9 PM], Tuesday: [11 AM-9 PM], Wednesday: [11 AM-9 PM], Thursday: [11 AM-9 PM], Friday: [11 AM-9 PM], Saturday: [11 AM-9 PM]"
  },
  {
    "name": "MINATO",
    "fulladdress": "1616 N 45th St, Seattle, WA 98103",
    "phone": "(206) 708-6729",
    "reviewCount": 51,
    "averageRating": 5,
    "googleMapsURL": "https://www.google.com/maps?cid=11743517508787748433",
    "latitude": 47.6616114,
    "longitude": -122.33841419999999,
    "website": "https://minatoseattle.com/",
    "has_patio": false,
    "cuisine": "Japanese",
    "openingHours": "Sunday: [12-8 PM], Monday: [Closed], Tuesday: [Closed], Wednesday: [12-8 PM], Thursday: [12-8 PM], Friday: [12-8 PM], Saturday: [12-8 PM]"
  },
  {
    "name": "Yoroshiku",
    "description": "Locally sourced Japanese cuisine & elevated ramen dishes presented in an upbeat, modern setting.",
    "fulladdress": "1913 N 45th St, Seattle, WA 98103",
    "phone": "(206) 547-4649",
    "reviewCount": 855,
    "averageRating": 4.3,
    "googleMapsURL": "https://www.google.com/maps?cid=12386830833057677290",
    "latitude": 47.661271299999996,
    "longitude": -122.3344206,
    "website": "http://yoroshikuseattle.com/",
    "has_patio": false,
    "cuisine": "Japanese",
    "openingHours": "Sunday: [11:30 AM-2 PM, 4:30-9:30 PM], Monday: [Closed], Tuesday: [Closed], Wednesday: [11:30 AM-2 PM, 4:30-9:30 PM], Thursday: [11:30 AM-2 PM, 4:30-9:30 PM], Friday: [11:30 AM-2 PM, 4:30-9:30 PM], Saturday: [11:30 AM-2 PM, 4:30-9:30 PM]"
  },
  {
    "name": "Hokkaido Ramen Santouka University Village",
    "fulladdress": "2626 NE University Village St, Seattle, WA 98105",
    "phone": "(206) 524-4431",
    "reviewCount": 966,
    "averageRating": 4.4,
    "googleMapsURL": "https://www.google.com/maps?cid=14930363169313278842",
    "latitude": 47.662365,
    "longitude": -122.29886979999999,
    "website": "https://www.santouka-usa.com/",
    "has_patio": true,
    "cuisine": "Japanese",
    "openingHours": "Sunday: [11 AM-9 PM], Monday: [11 AM-9 PM], Tuesday: [11 AM-9 PM], Wednesday: [11 AM-9 PM], Thursday: [11 AM-9 PM], Friday: [11 AM-9:30 PM], Saturday: [11 AM-9:30 PM]"
  },
  {
    "name": "Kisaku Sushi",
    "description": "Straightforward sushi & contemporary cooked dishes are hallmarks of this popular neighborhood spot.",
    "fulladdress": "2101 N 55th St Suite 100, Seattle, WA 98103",
    "phone": "(206) 545-9050",
    "reviewCount": 700,
    "averageRating": 4.5,
    "googleMapsURL": "https://www.google.com/maps?cid=12424695996515683421",
    "latitude": 47.668592499999995,
    "longitude": -122.3331082,
    "website": "http://www.kisaku.com/",
    "has_patio": false,
    "cuisine": "Japanese",
    "openingHours": "Sunday: [5-8 PM], Monday: [11:30 AM-2 PM, 5-8 PM], Tuesday: [11:30 AM-2 PM, 5-8 PM], Wednesday: [11:30 AM-2 PM, 5-8 PM], Thursday: [11:30 AM-2 PM, 5-8 PM], Friday: [11:30 AM-2 PM, 4:30-8:30 PM], Saturday: [11:30 AM-2 PM, 4:30-8:30 PM]"
  },
  {
    "name": "Kokkaku",
    "description": "Inventive Japanese cuisine & cocktails meets local ingredients in an understated space.",
    "fulladdress": "6904, 2208 N 45th St, Seattle, WA 98103",
    "phone": "(206) 588-1568",
    "reviewCount": 334,
    "averageRating": 4.4,
    "googleMapsURL": "https://www.google.com/maps?cid=12024539944781160071",
    "latitude": 47.6615779,
    "longitude": -122.3320725,
    "website": "http://www.kokkakuseattle.com/",
    "has_patio": true,
    "cuisine": "Japanese",
    "openingHours": "Sunday: [4:30-9 PM], Monday: [Closed], Tuesday: [4:30-9 PM], Wednesday: [4:30-9 PM], Thursday: [4:30-9 PM], Friday: [4:30-9 PM], Saturday: [4:30-9 PM]"
  },
  {
    "name": "Cafe on the Ave",
    "description": "Coffeehouse with a big American menu of breakfast staples & sandwiches in comfy digs with free WiFi.",
    "fulladdress": "4201 University Wy NE, Seattle, WA 98105",
    "phone": "(206) 632-6001",
    "reviewCount": 1104,
    "averageRating": 4.1,
    "googleMapsURL": "https://www.google.com/maps?cid=17620804082658305030",
    "latitude": 47.6584089,
    "longitude": -122.31334919999999,
    "website": "https://cafeontheave.site/",
    "has_patio": true,
    "cuisine": "Cafe",
    "openingHours": "Sunday: [7 AM-11 PM], Monday: [7 AM-11 PM], Tuesday: [7 AM-11 PM], Wednesday: [7 AM-11 PM], Thursday: [7 AM-11 PM], Friday: [7 AM-2 AM], Saturday: [7 AM-2 AM]"
  },
  {
    "name": "Cafe Solstice",
    "description": "Bright, busy cafe with basic eats such as sandwiches & pastries & a relaxed vibe.",
    "fulladdress": "4116 University Wy NE, Seattle, WA 98105",
    "reviewCount": 733,
    "averageRating": 4.4,
    "googleMapsURL": "https://www.google.com/maps?cid=1269118647932692316",
    "latitude": 47.6574076,
    "longitude": -122.31293699999999,
    "has_patio": true,
    "cuisine": "Cafe",
    "openingHours": "Sunday: [7 AM-5 PM], Monday: [6:30 AM-5 PM], Tuesday: [6:30 AM-5 PM], Wednesday: [6:30 AM-5 PM], Thursday: [6:30 AM-5 PM], Friday: [6:30 AM-5 PM], Saturday: [7 AM-5 PM]"
  },
  {
    "name": "Ugly Mug Cafe",
    "description": "Funky, collegial hangout for hot-mug drinks such as mochas, plus sandwiches & other American eats.",
    "fulladdress": "1309 NE 43rd St, Seattle, WA 98105",
    "reviewCount": 413,
    "averageRating": 4.6,
    "googleMapsURL": "https://www.google.com/maps?cid=17958005438821439302",
    "latitude": 47.6597041,
    "longitude": -122.31383179999999,
    "website": "http://www.uglymugseattle.com/",
    "has_patio": true,
    "cuisine": "Cafe",
    "openingHours": "Sunday: [9 AM-3 PM], Monday: [8 AM-5 PM], Tuesday: [8 AM-5 PM], Wednesday: [8 AM-5 PM], Thursday: [8 AM-5 PM], Friday: [8 AM-5 PM], Saturday: [9 AM-3 PM]"
  },
  {
    "name": "Café Happy",
    "fulladdress": "1408 NE 40th St, Seattle, WA 98105",
    "phone": "(425) 822-9696",
    "reviewCount": 103,
    "averageRating": 4.2,
    "googleMapsURL": "https://www.google.com/maps?cid=4471238026842297073",
    "latitude": 47.6554564,
    "longitude": -122.31298389999999,
    "website": "http://cafe-happy.com/",
    "has_patio": false,
    "cuisine": "Cafe",
    "openingHours": "Sunday: [12-11 PM], Monday: [12 PM-12 AM], Tuesday: [12 PM-12 AM], Wednesday: [12 PM-12 AM], Thursday: [12 PM-12 AM], Friday: [12 PM-12 AM], Saturday: [12-11 PM]"
  },
  {
    "name": "A Muddy Cup Cafe' & Roastery",
    "description": "Using house-roasted beans, this homey coffeehouse offers espresso drinks plus pastries & free WiFi.",
    "fulladdress": "266 NE 45th St, Seattle, WA 98105",
    "phone": "(206) 245-1015",
    "reviewCount": 325,
    "averageRating": 4.6,
    "googleMapsURL": "https://www.google.com/maps?cid=15259714262718903583",
    "latitude": 47.6615107,
    "longitude": -122.32532769999999,
    "website": "https://amuddycupcafe.com/",
    "has_patio": false,
    "cuisine": "Cafe",
    "openingHours": "Sunday: [8 AM-3 PM], Monday: [7 AM-3 PM], Tuesday: [7 AM-3 PM], Wednesday: [7 AM-3 PM], Thursday: [7 AM-3 PM], Friday: [7 AM-3 PM], Saturday: [8 AM-3 PM]"
  },
  {
    "name": "Sip House - Seattle Vietnamese Coffee Shop",
    "fulladdress": "5001 Brooklyn Ave NE, Seattle, WA 98105",
    "phone": "(206) 468-5358",
    "reviewCount": 262,
    "averageRating": 4.4,
    "googleMapsURL": "https://www.google.com/maps?cid=12733090543501804279",
    "latitude": 47.6651032,
    "longitude": -122.31448719999999,
    "website": "http://www.siphousewa.com/",
    "has_patio": true,
    "cuisine": "Cafe",
    "openingHours": "Sunday: [8 AM-5 PM], Monday: [8 AM-6 PM], Tuesday: [8 AM-6 PM], Wednesday: [8 AM-6 PM], Thursday: [8 AM-6 PM], Friday: [8 AM-6 PM], Saturday: [8 AM-6 PM]"
  },
  {
    "name": "Irwin's Neighborhood Bakery and Cafe",
    "description": "Sun-splashed bakery with outdoor tables serves muffins, pies & other pastries along with cafe bites.",
    "fulladdress": "2123 N 40th St, Seattle, WA 98103",
    "phone": "(206) 675-1484",
    "reviewCount": 452,
    "averageRating": 4.6,
    "googleMapsURL": "https://www.google.com/maps?cid=1220214834700492975",
    "latitude": 47.655494399999995,
    "longitude": -122.3328306,
    "website": "http://www.irwinsbakeryseattle.com/",
    "has_patio": true,
    "cuisine": "Cafe",
    "openingHours": "Sunday: [7 AM-6 PM], Monday: [7 AM-6 PM], Tuesday: [7 AM-6 PM], Wednesday: [7 AM-6 PM], Thursday: [7 AM-6 PM], Friday: [7 AM-6 PM], Saturday: [7 AM-6 PM]"
  },
  {
    "name": "Kitanda Espresso",
    "fulladdress": "1121 NE 45th St, Seattle, WA 98105",
    "phone": "(206) 866-4158",
    "reviewCount": 187,
    "averageRating": 4.5,
    "googleMapsURL": "https://www.google.com/maps?cid=14066242019404304563",
    "latitude": 47.6611817,
    "longitude": -122.31577019999999,
    "website": "http://www.kitanda.com/",
    "has_patio": true,
    "cuisine": "Cafe",
    "openingHours": "Sunday: [8 AM-4 PM], Monday: [8 AM-5:30 PM], Tuesday: [8 AM-5:30 PM], Wednesday: [8 AM-5:30 PM], Thursday: [8 AM-5:30 PM], Friday: [8 AM-5:30 PM], Saturday: [8 AM-5 PM]"
  },
  {
    "name": "FOMO Cafe",
    "fulladdress": "5600 Roosevelt Way NE #101, Seattle, WA 98105",
    "phone": "(510) 962-0363",
    "reviewCount": 10,
    "averageRating": 4.9,
    "googleMapsURL": "https://www.google.com/maps?cid=2295916456529970242",
    "latitude": 47.6695555,
    "longitude": -122.317251,
    "website": "https://linktr.ee/fomocafe",
    "has_patio": false,
    "cuisine": "Cafe",
    "openingHours": "Sunday: [6 AM-2 PM], Monday: [6 AM-4 PM], Tuesday: [6 AM-4 PM], Wednesday: [6 AM-4 PM], Thursday: [6 AM-4 PM], Friday: [6 AM-4 PM], Saturday: [6 AM-2 PM]"
  },
  {
    "name": "Portage Bay Cafe - Roosevelt",
    "description": "Bustling, bright cafe serving local, organic & seasonal breakfast, brunch & lunch dishes.",
    "fulladdress": "4130 Roosevelt Way NE, Seattle, WA 98105",
    "phone": "(206) 547-8230",
    "reviewCount": 2296,
    "averageRating": 4.3,
    "googleMapsURL": "https://www.google.com/maps?cid=8512620561937221439",
    "latitude": 47.6576344,
    "longitude": -122.31768679999999,
    "website": "https://www.portagebaycafe.com/",
    "has_patio": true,
    "cuisine": "Cafe",
    "openingHours": "Sunday: [8 AM-2 PM], Monday: [8 AM-1 PM], Tuesday: [8 AM-1 PM], Wednesday: [8 AM-1 PM], Thursday: [8 AM-1 PM], Friday: [8 AM-1 PM], Saturday: [8 AM-2 PM]"
  },
  {
    "name": "Pablo y Pablo",
    "description": "Bright, window-filled space offers modern Mexican fare & an extensive selection of tequila & mezcal.",
    "fulladdress": "1605 N 34th St, Seattle, WA 98103",
    "phone": "(206) 973-3505",
    "reviewCount": 1289,
    "averageRating": 4.3,
    "googleMapsURL": "https://www.google.com/maps?cid=13588636061770592382",
    "latitude": 47.647919099999996,
    "longitude": -122.3386161,
    "website": "https://pabloypablo.com/",
    "has_patio": true,
    "cuisine": "Mexican",
    "openingHours": "Sunday: [10:30 AM-8 PM], Monday: [4-9 PM], Tuesday: [4-9 PM], Wednesday: [4-9 PM], Thursday: [4-9 PM], Friday: [12-10 PM], Saturday: [10:30 AM-10 PM]"
  },
  {
    "name": "B&Z Family Mexican Restaurant",
    "fulladdress": "2232 Queen Anne Ave N, Seattle, WA 98109",
    "phone": "(206) 466-1937",
    "reviewCount": 89,
    "averageRating": 4.5,
    "googleMapsURL": "https://www.google.com/maps?cid=3377760263406010600",
    "latitude": 47.6394277,
    "longitude": -122.35665979999999,
    "website": "https://bz-restaurant.com/",
    "has_patio": false,
    "cuisine": "Mexican",
    "openingHours": "Sunday: [9 AM-9 PM], Monday: [9 AM-9 PM], Tuesday: [9 AM-9 PM], Wednesday: [9 AM-9 PM], Thursday: [9 AM-9 PM], Friday: [9 AM-9 PM], Saturday: [9 AM-9 PM]"
  },
  {
    "name": "El Camino",
    "description": "Colorful & lively eatery with creative takes on Mexican regional dishes, washed down by margaritas.",
    "fulladdress": "607 N 35th St, Seattle, WA 98103",
    "phone": "(206) 632-7303",
    "reviewCount": 1354,
    "averageRating": 4.3,
    "googleMapsURL": "https://www.google.com/maps?cid=1108896586138375869",
    "latitude": 47.650486699999995,
    "longitude": -122.350945,
    "website": "http://www.elcaminorestaurant.com/",
    "has_patio": true,
    "cuisine": "Mexican",
    "openingHours": "Sunday: [11 AM-9 PM], Monday: [4-9 PM], Tuesday: [4-9 PM], Wednesday: [4-9 PM], Thursday: [4-9 PM], Friday: [4-10 PM], Saturday: [11 AM-10 PM]"
  },
  {
    "name": "Pecado Bueno Eastlake",
    "fulladdress": "2356 Eastlake Ave E, Seattle, WA 98102",
    "phone": "(206) 687-7423",
    "reviewCount": 550,
    "averageRating": 4.2,
    "googleMapsURL": "https://www.google.com/maps?cid=2045854716623236444",
    "latitude": 47.641289699999994,
    "longitude": -122.3256991,
    "website": "http://www.pecadobueno.com/",
    "has_patio": true,
    "cuisine": "Mexican",
    "openingHours": "Sunday: [11 AM-9 PM], Monday: [11 AM-10 PM], Tuesday: [11 AM-10 PM], Wednesday: [11 AM-10 PM], Thursday: [11 AM-10 PM], Friday: [11 AM-10 PM], Saturday: [11 AM-10 PM]"
  },
  {
    "name": "El Chupacabra Greenwood",
    "description": "Happening outpost offering classic Mexican dishes & margaritas, plus outdoor seating.",
    "fulladdress": "6711 Greenwood Ave N, Seattle, WA 98103",
    "phone": "(206) 706-4889",
    "reviewCount": 1704,
    "averageRating": 4.4,
    "googleMapsURL": "https://www.google.com/maps?cid=15236441381232642563",
    "latitude": 47.678151899999996,
    "longitude": -122.3556886,
    "website": "http://elchupacabraseattle.com/",
    "has_patio": true,
    "cuisine": "Mexican",
    "openingHours": "Sunday: [11 AM-11 PM], Monday: [11:30 AM-11 PM], Tuesday: [11:30 AM-11 PM], Wednesday: [11:30 AM-11 PM], Thursday: [11:30 AM-11 PM], Friday: [11:30 AM-11 PM], Saturday: [11 AM-11 PM]"
  },
  {
    "name": "TNT Taqueria",
    "description": "Yellow storefront doling out made-to-order churros, tacos & other farm-fresh Mexican dishes all day.",
    "fulladdress": "2114 N 45th St, Seattle, WA 98103",
    "phone": "(206) 322-0124",
    "reviewCount": 1214,
    "averageRating": 4.5,
    "googleMapsURL": "https://www.google.com/maps?cid=14237985160638257576",
    "latitude": 47.6615004,
    "longitude": -122.33292309999999,
    "website": "http://www.tnttaqueria.com/",
    "has_patio": true,
    "cuisine": "Mexican",
    "openingHours": "Sunday: [8 AM-9 PM], Monday: [8 AM-9 PM], Tuesday: [8 AM-9 PM], Wednesday: [8 AM-9 PM], Thursday: [8 AM-9 PM], Friday: [8 AM-9 PM], Saturday: [8 AM-9 PM]"
  },
  {
    "name": "El Legendario Mexican Restaurant",
    "description": "Family-owned cantina serving up familiar Mexican fare such as enchiladas, tacos & carnitas.",
    "fulladdress": "4705 Aurora Ave N, Seattle, WA 98103",
    "phone": "(206) 539-9731",
    "reviewCount": 704,
    "averageRating": 4.5,
    "googleMapsURL": "https://www.google.com/maps?cid=11175729358399802372",
    "latitude": 47.663211499999996,
    "longitude": -122.3475946,
    "has_patio": false,
    "cuisine": "Mexican",
    "openingHours": "Sunday: [12-9 PM], Monday: [Closed], Tuesday: [12-10 PM], Wednesday: [12-10 PM], Thursday: [12-10 PM], Friday: [12-10 PM], Saturday: [12-10 PM]"
  },
  {
    "name": "El Camion",
    "fulladdress": "4529 Sand Point Way NE, Seattle, WA 98105",
    "phone": "(206) 779-0244",
    "reviewCount": 968,
    "averageRating": 4.5,
    "googleMapsURL": "https://www.google.com/maps?cid=17533700933798862613",
    "latitude": 47.6615708,
    "longitude": -122.28740669999999,
    "website": "http://www.elcamionseattle.com/",
    "has_patio": true,
    "cuisine": "Mexican",
    "openingHours": "Sunday: [11 AM-9 PM], Monday: [11 AM-9 PM], Tuesday: [11 AM-9 PM], Wednesday: [11 AM-9 PM], Thursday: [11 AM-9 PM], Friday: [11 AM-9 PM], Saturday: [11 AM-9 PM]"
  },
  {
    "name": "Pecado Bueno Fremont",
    "description": "Lively, family-friendly place turning out taqueria-style food & margaritas from a full bar.",
    "fulladdress": "4307 Fremont Ave N, Seattle, WA 98103",
    "phone": "(206) 457-8837",
    "reviewCount": 797,
    "averageRating": 4.3,
    "googleMapsURL": "https://www.google.com/maps?cid=4965791670704601639",
    "latitude": 47.6592535,
    "longitude": -122.3504054,
    "website": "http://www.pecadobueno.com/",
    "has_patio": true,
    "cuisine": "Mexican",
    "openingHours": "Sunday: [11 AM-9 PM], Monday: [11 AM-10 PM], Tuesday: [11 AM-10 PM], Wednesday: [11 AM-10 PM], Thursday: [11 AM-10 PM], Friday: [11 AM-10 PM], Saturday: [11 AM-10 PM]"
  },
  {
    "name": "Memos Mexican Restaurant",
    "description": "Fast-food joint offering a variety of burritos plus tacos & other Mexican eats around the clock.",
    "fulladdress": "4743 University Wy NE, Seattle, WA 98105",
    "phone": "(206) 729-5071",
    "reviewCount": 1160,
    "averageRating": 3.7,
    "googleMapsURL": "https://www.google.com/maps?cid=2775017844213440412",
    "latitude": 47.664288,
    "longitude": -122.3133929,
    "website": "https://memosmexicanrestaurantwa.com/",
    "has_patio": false,
    "cuisine": "Mexican",
    "openingHours": "Sunday: [6 AM-1 AM], Monday: [6 AM-1 AM], Tuesday: [6 AM-1 AM], Wednesday: [6 AM-1 AM], Thursday: [6 AM-1 AM], Friday: [6 AM-2 AM], Saturday: [6 AM-2 AM]"
  },
  {
    "name": "Just Burgers Udistrict",
    "description": "Busy location serving New American diner fare featuring burgers, shakes & sweet-potato fries.",
    "fulladdress": "4510 University Wy NE, Seattle, WA 98105",
    "phone": "(425) 276-1824",
    "reviewCount": 1115,
    "averageRating": 4.3,
    "googleMapsURL": "https://www.google.com/maps?cid=8486731664626640033",
    "latitude": 47.6616516,
    "longitude": -122.3127679,
    "website": "http://justburgersco.com/",
    "has_patio": false,
    "cuisine": "American",
    "openingHours": "Sunday: [11 AM-11 PM], Monday: [11 AM-11 PM], Tuesday: [11 AM-11 PM], Wednesday: [11 AM-11 PM], Thursday: [11 AM-11 PM], Friday: [11 AM-11 PM], Saturday: [11 AM-11 PM]"
  },
  {
    "name": "Eureka!",
    "description": "Hip dining spot serving elevated burgers, craft beer & whiskey in industrial-chic surrounds.",
    "fulladdress": "2614 NE 46th St, Seattle, WA 98105",
    "phone": "(206) 812-9655",
    "reviewCount": 990,
    "averageRating": 4.2,
    "googleMapsURL": "https://www.google.com/maps?cid=16434877200046406525",
    "latitude": 47.6619252,
    "longitude": -122.2990801,
    "website": "http://eurekarestaurantgroup.com/blog/locations/seattle-u-village/",
    "has_patio": true,
    "cuisine": "American",
    "openingHours": "Sunday: [11 AM-11 PM], Monday: [11 AM-11 PM], Tuesday: [11 AM-11 PM], Wednesday: [11 AM-11 PM], Thursday: [11 AM-11 PM], Friday: [11 AM-12 AM], Saturday: [11 AM-12 AM]"
  },
  {
    "name": "Burgermaster",
    "description": "Outpost of a veteran local chain, founded in 1952, of drive-in burger, shake & french-fry joints.",
    "fulladdress": "3040 NE 45th St, Seattle, WA 98105",
    "phone": "(206) 525-7100",
    "reviewCount": 1807,
    "averageRating": 4.2,
    "googleMapsURL": "https://www.google.com/maps?cid=18261321121774377623",
    "latitude": 47.6615177,
    "longitude": -122.29394289999999,
    "website": "https://burgermaster.com/",
    "has_patio": false,
    "cuisine": "American",
    "openingHours": "Sunday: [7 AM-9 PM], Monday: [7 AM-9 PM], Tuesday: [7 AM-9 PM], Wednesday: [7 AM-9 PM], Thursday: [7 AM-10 PM], Friday: [7 AM-10 PM], Saturday: [7 AM-10 PM]"
  },
  {
    "name": "Dick's Drive-In",
    "description": "Part of an old-school chain of fast-food spots offering burgers, fries & hand-dipped shakes.",
    "fulladdress": "111 NE 45th St, Seattle, WA 98105",
    "phone": "(206) 632-5125",
    "reviewCount": 8582,
    "averageRating": 4.6,
    "googleMapsURL": "https://www.google.com/maps?cid=3317718277705693267",
    "latitude": 47.6610617,
    "longitude": -122.3277773,
    "website": "http://www.ddir.com/",
    "has_patio": true,
    "cuisine": "American",
    "openingHours": "Sunday: [10:30 AM-2 AM], Monday: [10:30 AM-2 AM], Tuesday: [10:30 AM-2 AM], Wednesday: [10:30 AM-2 AM], Thursday: [10:30 AM-2 AM], Friday: [10:30 AM-2 AM], Saturday: [10:30 AM-2 AM]"
  },
  {
    "name": "Rain City Burgers",
    "description": "Snug burger joint with thoughtfully sourced patties such as beef, salmon & vegetarian plus shakes.",
    "fulladdress": "6501 Roosevelt Way NE, Seattle, WA 98115",
    "phone": "(206) 525-3542",
    "reviewCount": 1485,
    "averageRating": 4.5,
    "googleMapsURL": "https://www.google.com/maps?cid=18070125251856768623",
    "latitude": 47.675951,
    "longitude": -122.3176081,
    "website": "http://www.raincityburgers.com/",
    "has_patio": false,
    "cuisine": "American",
    "openingHours": "Sunday: [11 AM-9 PM], Monday: [11 AM-9 PM], Tuesday: [11 AM-9 PM], Wednesday: [11 AM-9 PM], Thursday: [11 AM-9 PM], Friday: [11 AM-9 PM], Saturday: [11 AM-9 PM]"
  },
  {
    "name": "206 Burger Company",
    "fulladdress": "1329 N 45th St #109, Seattle, WA 98103",
    "phone": "(206) 453-4179",
    "reviewCount": 77,
    "averageRating": 4.4,
    "googleMapsURL": "https://www.google.com/maps?cid=2845105943384649133",
    "latitude": 47.6612455,
    "longitude": -122.3408635,
    "website": "http://www.206burgercompany.com/",
    "has_patio": false,
    "cuisine": "American",
    "openingHours": "Sunday: [11 AM-8 PM], Monday: [11 AM-9 PM], Tuesday: [11 AM-9 PM], Wednesday: [11 AM-9 PM], Thursday: [11 AM-9 PM], Friday: [11 AM-9 PM], Saturday: [11 AM-9 PM]"
  },
  {
    "name": "Burger and Kabob Hut",
    "description": "Late-night standby serves up burgers, kebabs & other global grub at the counter in unfussy environs.",
    "fulladdress": "4142 University Wy NE, Seattle, WA 98105",
    "phone": "(206) 632-0324",
    "reviewCount": 2258,
    "averageRating": 4.3,
    "googleMapsURL": "https://www.google.com/maps?cid=11849889612199050931",
    "latitude": 47.6580787,
    "longitude": -122.31303079999999,
    "has_patio": false,
    "cuisine": "Indian",
    "openingHours": "Sunday: [12 PM-3 AM], Monday: [12 PM-2 AM], Tuesday: [12 PM-2 AM], Wednesday: [12 PM-2 AM], Thursday: [12 PM-2 AM], Friday: [12 PM-3 AM], Saturday: [12 PM-3 AM]"
  },
  {
    "name": "Great State Burger",
    "description": "Washington-focused burger joint serving local organic beef & shakes in hip digs.",
    "fulladdress": "3600 NE 45th St, Seattle, WA 98105",
    "phone": "(206) 775-8990",
    "reviewCount": 468,
    "averageRating": 4.2,
    "googleMapsURL": "https://www.google.com/maps?cid=14444437535609454233",
    "latitude": 47.6613057,
    "longitude": -122.2886195,
    "website": "http://www.greatstateburger.com/",
    "has_patio": true,
    "cuisine": "American",
    "openingHours": "Sunday: [9:30 AM-9 PM], Monday: [11 AM-9 PM], Tuesday: [11 AM-9 PM], Wednesday: [11 AM-9 PM], Thursday: [11 AM-9 PM], Friday: [11 AM-9 PM], Saturday: [9:30 AM-9 PM]"
  },
  {
    "name": "Shake Shack University Village",
    "description": "Hip, counter-serve chain for gourmet takes on fast-food classics like burgers & frozen custard.",
    "fulladdress": "2580 NE University Village St, Seattle, WA 98105",
    "phone": "(206) 487-1283",
    "reviewCount": 896,
    "averageRating": 3.9,
    "googleMapsURL": "https://www.google.com/maps?cid=9914595420099058062",
    "latitude": 47.6634726,
    "longitude": -122.2998148,
    "website": "https://www.shakeshack.com/location/university-village-wa?utm_source=G&utm_medium=local&utm_campaign=google-local",
    "has_patio": true,
    "cuisine": "American",
    "openingHours": "Sunday: [10:30 AM-9 PM], Monday: [10:30 AM-9 PM], Tuesday: [10:30 AM-9 PM], Wednesday: [10:30 AM-9 PM], Thursday: [10:30 AM-9 PM], Friday: [10:30 AM-10 PM], Saturday: [10:30 AM-10 PM]"
  },
  {
    "name": "Kidd Valley",
    "description": "Counter-serve chain offering burgers & sandwiches, plus fried mushrooms, onion rings & shakes.",
    "fulladdress": "4910 Green Lake Way N, Seattle, WA 98103",
    "phone": "(206) 547-0121",
    "reviewCount": 880,
    "averageRating": 4.3,
    "googleMapsURL": "https://www.google.com/maps?cid=4768061293323445644",
    "latitude": 47.664445099999995,
    "longitude": -122.34096729999999,
    "website": "https://www.kiddvalley.com/",
    "has_patio": false,
    "cuisine": "American",
    "openingHours": "Sunday: [11 AM-9 PM], Monday: [11 AM-9 PM], Tuesday: [11 AM-9 PM], Wednesday: [11 AM-9 PM], Thursday: [11 AM-9 PM], Friday: [11 AM-9 PM], Saturday: [11 AM-9 PM]"
  },
  {
    "name": "Kamal Da Dhaba Indian Restaurant",
    "fulladdress": "4736 -2 University Wy NE, Seattle, WA 98105",
    "phone": "(206) 697-3120",
    "reviewCount": 243,
    "averageRating": 3.2,
    "googleMapsURL": "https://www.google.com/maps?cid=15562819046212660029",
    "latitude": 47.6641967,
    "longitude": -122.3128768,
    "has_patio": false,
    "cuisine": "Indian",
    "openingHours": "Sunday: [Open 24 hours], Monday: [Open 24 hours], Tuesday: [Open 24 hours], Wednesday: [Open 24 hours], Thursday: [Open 24 hours], Friday: [Open 24 hours], Saturday: [Open 24 hours]"
  },
  {
    "name": "Chili's South Indian Cuisine",
    "description": "Snug, no-frills eatery & deli offering southern Indian fare headlined by its lineup of dosas.",
    "fulladdress": "4220 University Wy NE, Seattle, WA 98105",
    "phone": "(206) 633-1458",
    "reviewCount": 1152,
    "averageRating": 4.1,
    "googleMapsURL": "https://www.google.com/maps?cid=13381854076940270073",
    "latitude": 47.658983799999994,
    "longitude": -122.31306819999999,
    "website": "http://chilissouthindianrestaurant.com/",
    "has_patio": false,
    "cuisine": "Indian",
    "openingHours": "Sunday: [11:30 AM-9 PM], Monday: [Closed], Tuesday: [11:30 AM-9 PM], Wednesday: [11:30 AM-9 PM], Thursday: [11:30 AM-9 PM], Friday: [11:30 AM-9 PM], Saturday: [11:30 AM-9 PM]"
  },
  {
    "name": "Cedars in University District",
    "description": "Casual eatery offering classic Indian & Mediterranean dishes in a homey setting.",
    "fulladdress": "4759 Brooklyn Ave NE, Seattle, WA 98105",
    "phone": "(206) 527-4000",
    "reviewCount": 1721,
    "averageRating": 4.4,
    "googleMapsURL": "https://www.google.com/maps?cid=5281122273566209644",
    "latitude": 47.664727299999996,
    "longitude": -122.31454029999999,
    "website": "http://cedarsseattle.com/",
    "has_patio": true,
    "cuisine": "Indian",
    "openingHours": "Sunday: [11 AM-10 PM], Monday: [11 AM-9:30 PM], Tuesday: [11 AM-10 PM], Wednesday: [11 AM-10 PM], Thursday: [11 AM-10 PM], Friday: [11 AM-10 PM], Saturday: [11 AM-10 PM]"
  },
  {
    "name": "Jewel of India",
    "description": "Indian restaurant offering a diverse menu & lunch buffet in a nondescript space.",
    "fulladdress": "4735 University Wy NE, Seattle, WA 98105",
    "phone": "(206) 523-5275",
    "reviewCount": 641,
    "averageRating": 4.2,
    "googleMapsURL": "https://www.google.com/maps?cid=12613115951192953440",
    "latitude": 47.664133,
    "longitude": -122.313424,
    "website": "https://jewelofindiawa.com/",
    "has_patio": false,
    "cuisine": "Indian",
    "openingHours": "Sunday: [10:30 AM-11 PM], Monday: [10:30 AM-11 PM], Tuesday: [10:30 AM-11 PM], Wednesday: [10:30 AM-11 PM], Thursday: [10:30 AM-11 PM], Friday: [10:30 AM-11 PM], Saturday: [10:30 AM-11 PM]"
  },
  {
    "name": "Maggi Point Restaurant",
    "description": "Low-key joint doling out Thai classics such as stir-fry, curries, noodle dishes & desserts.",
    "fulladdress": "4736 University Wy NE, Seattle, WA 98105",
    "phone": "(206) 524-6339",
    "reviewCount": 593,
    "averageRating": 4.3,
    "googleMapsURL": "https://www.google.com/maps?cid=3379981897712254006",
    "latitude": 47.6641906,
    "longitude": -122.31291209999999,
    "website": "https://maggiepoints.com/orderonline.html",
    "has_patio": false,
    "cuisine": "Indian",
    "openingHours": "Sunday: [Open 24 hours], Monday: [Open 24 hours], Tuesday: [Open 24 hours], Wednesday: [Open 24 hours], Thursday: [Open 24 hours], Friday: [Open 24 hours], Saturday: [Open 24 hours]"
  },
  {
    "name": "Taste of India",
    "description": "Comfortable, casual spot for classic Indian dishes & bottomless chai tea service.",
    "fulladdress": "5517 Roosevelt Way NE, Seattle, WA 98105",
    "phone": "(206) 590-6460",
    "reviewCount": 2834,
    "averageRating": 4.4,
    "googleMapsURL": "https://www.google.com/maps?cid=2894862805539428719",
    "latitude": 47.6690337,
    "longitude": -122.31757789999999,
    "website": "https://tasteofindiaseattle.com/",
    "has_patio": true,
    "cuisine": "Indian",
    "openingHours": "Sunday: [11 AM-9 PM], Monday: [11 AM-9 PM], Tuesday: [11 AM-9 PM], Wednesday: [11 AM-9 PM], Thursday: [11 AM-9 PM], Friday: [11 AM-9 PM], Saturday: [11 AM-9 PM]"
  },
  {
    "name": "Taco Twist",
    "fulladdress": "4549 University Wy NE A, Seattle, WA 98105",
    "phone": "(206) 237-8001",
    "reviewCount": 28,
    "averageRating": 4.9,
    "googleMapsURL": "https://www.google.com/maps?cid=10049203700692458573",
    "latitude": 47.6627434,
    "longitude": -122.3134082,
    "website": "https://www.tacotwistseattle.com/",
    "has_patio": false,
    "cuisine": "Indian",
    "openingHours": "Sunday: [12 PM-1 AM], Monday: [12 PM-1 AM], Tuesday: [12 PM-1 AM], Wednesday: [12 PM-1 AM], Thursday: [12 PM-1 AM], Friday: [12 PM-2 AM], Saturday: [12 PM-2 AM]"
  },
  {
    "name": "India Bistro",
    "description": "Northern Indian eatery offering homestyle dishes & a daily lunch buffet in contemporary quarters.",
    "fulladdress": "6417 Roosevelt Way NE #106, Seattle, WA 98115",
    "phone": "(206) 517-4444",
    "reviewCount": 527,
    "averageRating": 4.3,
    "googleMapsURL": "https://www.google.com/maps?cid=15190337620167882833",
    "latitude": 47.675709,
    "longitude": -122.3178717,
    "website": "https://www.indiabistroroosevelt.com/",
    "has_patio": false,
    "cuisine": "Indian",
    "openingHours": "Sunday: [11 AM-9 PM], Monday: [11 AM-9 PM], Tuesday: [11 AM-9 PM], Wednesday: [11 AM-9 PM], Thursday: [11 AM-9 PM], Friday: [11 AM-9 PM], Saturday: [11 AM-9 PM]"
  },
  {
    "name": "Chutneys Bistro",
    "description": "Traditional Northern Indian fare with some bistro-style plates in a lofty, bright brick-walled room.",
    "fulladdress": "1815 N 45th St, Seattle, WA 98103",
    "phone": "(206) 634-1000",
    "reviewCount": 447,
    "averageRating": 4.1,
    "googleMapsURL": "https://www.google.com/maps?cid=11124884159555402112",
    "latitude": 47.6606394,
    "longitude": -122.33585199999999,
    "website": "http://www.chutneysbistro.com/",
    "has_patio": false,
    "cuisine": "Indian",
    "openingHours": "Sunday: [11 AM-2:30 PM, 4:30-8:30 PM], Monday: [11 AM-2:30 PM, 4:30-8:30 PM], Tuesday: [11 AM-2:30 PM, 4:30-8:30 PM], Wednesday: [11 AM-2:30 PM, 4:30-8:30 PM], Thursday: [11 AM-2:30 PM, 4:30-8:30 PM], Friday: [11 AM-2:30 PM, 4:30-8:30 PM], Saturday: [11 AM-2:30 PM, 4:30-8:30 PM]"
  },
  {
    "name": "Mother India Cuisine",
    "description": "Unpretentious restaurant offering Indian cuisine using locally sourced ingredients.",
    "fulladdress": "1515 Westlake Ave N, Seattle, WA 98109",
    "phone": "(206) 257-0701",
    "reviewCount": 750,
    "averageRating": 4.5,
    "googleMapsURL": "https://www.google.com/maps?cid=5727355242733960856",
    "latitude": 47.6329244,
    "longitude": -122.3409413,
    "website": "http://www.motherindiaseattle.com/",
    "has_patio": false,
    "cuisine": "Indian",
    "openingHours": "Sunday: [11 AM-9:30 PM], Monday: [11 AM-9:30 PM], Tuesday: [11 AM-9:30 PM], Wednesday: [11 AM-9:30 PM], Thursday: [11 AM-9:30 PM], Friday: [11 AM-9:30 PM], Saturday: [11 AM-9:30 PM]"
  },
  {
    "name": "Sultan Gyros Grill",
    "description": "Mediterranean comfort foods feature at this small counter serve lined with tapestries.",
    "fulladdress": "4222 University Wy NE, Seattle, WA 98105",
    "phone": "(206) 632-7844",
    "reviewCount": 697,
    "averageRating": 4.5,
    "googleMapsURL": "https://www.google.com/maps?cid=78687972037870545",
    "latitude": 47.6590237,
    "longitude": -122.31290349999999,
    "has_patio": false,
    "cuisine": "Mediterranean",
    "openingHours": "Sunday: [11 AM-1:30 AM], Monday: [11 AM-1:30 AM], Tuesday: [11 AM-1:30 AM], Wednesday: [11 AM-1:30 AM], Thursday: [11 AM-1:30 AM], Friday: [11 AM-2 AM], Saturday: [11 AM-2 AM]"
  },
  {
    "name": "Almanqal Mediterranean Grill",
    "description": "Compact Mediterranean bistro offering traditional cooking in a homey, photo-lined space.",
    "fulladdress": "1712 N 45th St, Seattle, WA 98103",
    "phone": "(206) 659-4664",
    "reviewCount": 498,
    "averageRating": 4.5,
    "googleMapsURL": "https://www.google.com/maps?cid=560889397535884143",
    "latitude": 47.661499299999996,
    "longitude": -122.3369791,
    "website": "https://www.almanqalgrill.com/",
    "has_patio": false,
    "cuisine": "Mediterranean",
    "openingHours": "Sunday: [11 AM-9 PM], Monday: [12-9 PM], Tuesday: [12-9 PM], Wednesday: [12-9 PM], Thursday: [11 AM-9 PM], Friday: [11 AM-10 PM], Saturday: [11 AM-10 PM]"
  },
  {
    "name": "Gyro House",
    "description": "Colorful Mediterranean cafe with an extensive menu of favorites like gyros, kebabs & baklava.",
    "fulladdress": "2355 10th Ave E #2355, Seattle, WA 98102",
    "phone": "(206) 457-5956",
    "reviewCount": 253,
    "averageRating": 4.4,
    "googleMapsURL": "https://www.google.com/maps?cid=15762629947803324404",
    "latitude": 47.6411254,
    "longitude": -122.32034759999999,
    "website": "https://www.gyrohouseone.com/",
    "has_patio": false,
    "cuisine": "Mediterranean",
    "openingHours": "Sunday: [11 AM-9 PM], Monday: [10 AM-9 PM], Tuesday: [10 AM-9 PM], Wednesday: [10 AM-9 PM], Thursday: [10 AM-9 PM], Friday: [10 AM-9 PM], Saturday: [10 AM-9 PM]"
  },
  {
    "name": "Shawarma King",
    "description": "Gyros, shawarmas, kebabs & falafel are all served at this casual restaurant for Mediterranean grub.",
    "fulladdress": "5241 University Wy NE, Seattle, WA 98105",
    "phone": "(206) 913-2735",
    "reviewCount": 559,
    "averageRating": 4.4,
    "googleMapsURL": "https://www.google.com/maps?cid=8064522539379012068",
    "latitude": 47.6676289,
    "longitude": -122.3133361,
    "website": "https://mohsoliman1.wixsite.com/shawarma-king",
    "has_patio": false,
    "cuisine": "Mediterranean",
    "openingHours": "Sunday: [11 AM-2 AM], Monday: [11 AM-2 AM], Tuesday: [11 AM-2 AM], Wednesday: [11 AM-2 AM], Thursday: [11 AM-2 AM], Friday: [11 AM-3 AM], Saturday: [11 AM-3 AM]"
  },
  {
    "name": "Samir's Mediterranean Grill",
    "fulladdress": "1316 NE 43rd St, Seattle, WA 98105",
    "phone": "(206) 633-1778",
    "reviewCount": 104,
    "averageRating": 4.4,
    "googleMapsURL": "https://www.google.com/maps?cid=17687132457191077753",
    "latitude": 47.6599528,
    "longitude": -122.3135131,
    "website": "https://samirsmediterranean.com/",
    "has_patio": true,
    "cuisine": "Mediterranean",
    "openingHours": "Sunday: [Closed], Monday: [9:30 AM-8 PM], Tuesday: [9:30 AM-8 PM], Wednesday: [9:30 AM-8 PM], Thursday: [9:30 AM-8 PM], Friday: [9:30 AM-8 PM], Saturday: [10 AM-8 PM]"
  },
  {
    "name": "Al Bacha Restaurant",
    "description": "Simple counter-serve palce offering Mediterranean fast food like gyros, kebabs, and shawarmas.",
    "fulladdress": "1833 Broadway, Seattle, WA 98122",
    "phone": "(206) 413-5870",
    "reviewCount": 730,
    "averageRating": 4.5,
    "googleMapsURL": "https://www.google.com/maps?cid=17275845803075035915",
    "latitude": 47.6185578,
    "longitude": -122.3210733,
    "website": "https://www.albachabroadway.com/",
    "has_patio": false,
    "cuisine": "Mediterranean",
    "openingHours": "Sunday: [10 AM-12 AM], Monday: [10 AM-12 AM], Tuesday: [10 AM-12 AM], Wednesday: [10 AM-12 AM], Thursday: [10 AM-12 AM], Friday: [10 AM-2:30 AM], Saturday: [10 AM-2:30 AM]"
  },
  {
    "name": "Costas Restaurant",
    "description": "Family-run, brick-walled mainstay serving Greek fare plus pasta, American eats & all-day breakfast.",
    "fulladdress": "4559 University Wy NE, Seattle, WA 98105",
    "phone": "(206) 633-2751",
    "reviewCount": 736,
    "averageRating": 4.1,
    "googleMapsURL": "https://www.google.com/maps?cid=10950273300297513091",
    "latitude": 47.6629801,
    "longitude": -122.3133074,
    "website": "https://www.costasseattle.com/",
    "has_patio": false,
    "cuisine": "Mediterranean",
    "openingHours": "Sunday: [7:30 AM-9 PM], Monday: [7:30 AM-9 PM], Tuesday: [7:30 AM-9 PM], Wednesday: [7:30 AM-9 PM], Thursday: [7:30 AM-9 PM], Friday: [7:30 AM-9 PM], Saturday: [7:30 AM-9 PM]"
  },
  {
    "name": "Aladdin Gyro-Cery & Deli",
    "description": "No-frills Mediterranean staple for hearty gyros, falafel & shawarma, plus Turkish coffee.",
    "fulladdress": "4139 University Wy NE, Seattle, WA 98105",
    "phone": "(206) 632-5253",
    "reviewCount": 1984,
    "averageRating": 4.5,
    "googleMapsURL": "https://www.google.com/maps?cid=15542653725248560405",
    "latitude": 47.657981899999996,
    "longitude": -122.31336189999999,
    "website": "http://www.aladdingyro.com/",
    "has_patio": false,
    "cuisine": "Mediterranean",
    "openingHours": "Sunday: [10 AM-2 AM], Monday: [10 AM-2 AM], Tuesday: [10 AM-2 AM], Wednesday: [10 AM-2 AM], Thursday: [10 AM-2 AM], Friday: [10 AM-2:30 AM], Saturday: [10 AM-2:30 AM]"
  },
  {
    "name": "Aladdin Falafel Corner",
    "description": "Storefront choice with ethnic decor accents serving Middle Eastern specialties till the wee hours.",
    "fulladdress": "4541 University Wy NE, Seattle, WA 98105",
    "phone": "(206) 548-9539",
    "reviewCount": 579,
    "averageRating": 4.4,
    "googleMapsURL": "https://www.google.com/maps?cid=1258123292263757478",
    "latitude": 47.6624768,
    "longitude": -122.3132785,
    "website": "https://www.aladdinfalafel.com/",
    "has_patio": false,
    "cuisine": "Mediterranean",
    "openingHours": "Sunday: [11 AM-11 PM], Monday: [11 AM-11 PM], Tuesday: [11 AM-11 PM], Wednesday: [11 AM-11 PM], Thursday: [11 AM-11 PM], Friday: [11 AM-2 AM], Saturday: [11 AM-2 AM]"
  }
]